{
  "general": [
    {
      "title": "–ï–¥–∏–Ω—ã–π —Å–ø—Ä–∞–≤–æ—á–Ω—ã–π —Ç–µ–ª–µ—Ñ–æ–Ω",
      "description": "–ü–æ —ç—Ç–æ–º—É –Ω–æ–º–µ—Ä—É –≤—ã –º–æ–∂–µ—Ç–µ –ø–æ–ª—É—á–∏—Ç—å –∏–Ω—Ñ–æ—Ä–º–∞—Ü–∏—é –æ –¥–æ—Ä–æ–∂–Ω–æ–π —Å–∏—Ç—É–∞—Ü–∏–∏, —Ä–∞–±–æ—Ç–µ —Å–≤–µ—Ç–æ—Ñ–æ—Ä–æ–≤ –∏ –æ–±—â–µ—Å—Ç–≤–µ–Ω–Ω–æ–≥–æ —Ç—Ä–∞–Ω—Å–ø–æ—Ä—Ç–∞",
      "phone": "+7 (4812) 12-34-56",
      "hours": "–ö—Ä—É–≥–ª–æ—Å—É—Ç–æ—á–Ω–æ",
      "icon": "üìû"
    },
    {
      "id": 2,
      "title": "–ü—Ä–∏–µ–º–Ω–∞—è –¶–û–î–î",
      "description": "–ü–æ –≤–æ–ø—Ä–æ—Å–∞–º —Å–æ—Ç—Ä—É–¥–Ω–∏—á–µ—Å—Ç–≤–∞ –∏ –æ—Ñ–∏—Ü–∏–∞–ª—å–Ω—ã–º –æ–±—Ä–∞—â–µ–Ω–∏—è–º",
      "phone": "+7 (4812) 12-34-57",
      "hours": "–ü–Ω-–ü—Ç: 9:00-18:00",
      "email": "reception@codd-smolensk.ru",
      "icon": "üè¢"
    }
  ],
  "departments": [
    {
      "id": 1,
      "title": "–û—Ç–¥–µ–ª –æ—Ä–≥–∞–Ω–∏–∑–∞—Ü–∏–∏ –¥–æ—Ä–æ–∂–Ω–æ–≥–æ –¥–≤–∏–∂–µ–Ω–∏—è",
      "description": "–ü–ª–∞–Ω–∏—Ä–æ–≤–∞–Ω–∏–µ –∏ –æ–ø—Ç–∏–º–∏–∑–∞—Ü–∏—è –¥–æ—Ä–æ–∂–Ω–æ–≥–æ –¥–≤–∏–∂–µ–Ω–∏—è",
      "phone": "+7 (4812) 12-34-58",
      "hours": "–ü–Ω-–ü—Ç: 9:00-18:00",
      "icon": "üö¶"
    },
    {
      "id": 2,
      "title": "–¢–µ—Ö–Ω–∏—á–µ—Å–∫–∞—è –ø–æ–¥–¥–µ—Ä–∂–∫–∞",
      "description": "–ù–µ–∏—Å–ø—Ä–∞–≤–Ω–æ—Å—Ç–∏ —Å–≤–µ—Ç–æ—Ñ–æ—Ä–æ–≤, –¥–æ—Ä–æ–∂–Ω—ã—Ö –∑–Ω–∞–∫–æ–≤ –∏ –æ–±–æ—Ä—É–¥–æ–≤–∞–Ω–∏—è",
      "phone": "+7 (4812) 12-34-59",
      "hours": "–ö—Ä—É–≥–ª–æ—Å—É—Ç–æ—á–Ω–æ",
      "icon": "üîß"
    },
    {
      "id": 3,
      "title": "–ì–æ—Ä—è—á–∞—è –ª–∏–Ω–∏—è –¥–ª—è –≤–æ–¥–∏—Ç–µ–ª–µ–π",
      "description": "–ö–æ–Ω—Å—É–ª—å—Ç–∞—Ü–∏–∏ –ø–æ –≤–æ–ø—Ä–æ—Å–∞–º –ü–î–î –∏ –¥–æ—Ä–æ–∂–Ω–æ–π —Å–∏—Ç—É–∞—Ü–∏–∏",
      "phone": "+7 (4812) 12-34-60",
      "hours": "–ü–Ω-–í—Å: 7:00-23:00",
      "icon": "üöó"
    }
  ],
  "addresses": [
    {
      "id": 1,
      "title": "–ì–ª–∞–≤–Ω—ã–π –æ—Ñ–∏—Å",
      "address": "–≥. –°–º–æ–ª–µ–Ω—Å–∫, —É–ª. –õ–µ–Ω–∏–Ω–∞, –¥. 15, –æ—Ñ–∏—Å 304",
      "hours": "–ü–Ω-–ü—Ç: 9:00-18:00",
      "icon": "üìç"
    },
    {
      "id": 2,
      "title": "–û–ø–µ—Ä–∞—Ç–∏–≤–Ω—ã–π —Ü–µ–Ω—Ç—Ä",
      "address": "–≥. –°–º–æ–ª–µ–Ω—Å–∫, —É–ª. –ë–∞–≥—Ä–∞—Ç–∏–æ–Ω–∞, –¥. 8",
      "hours": "–ö—Ä—É–≥–ª–æ—Å—É—Ç–æ—á–Ω–æ",
      "icon": "üéÆ"
    }
  ]
}
